[{"name":"Port Hueneme, CA, the US","latitude":"34.155834","longitude":"-119.202789"},{"name":"Auburn, NY, USA","latitude":"42.933334","longitude":"-76.566666"},{"name":"Jamestown, NY, the US","latitude":"42.095554","longitude":"-79.238609"},{"name":"Fulton, MO, USA","latitude":"38.846668","longitude":"-91.948059"},{"name":"Bedford, OH, the US","latitude":"41.392502","longitude":"-81.534447"},{"name":"Stuart, FL, USA","latitude":"27.192223","longitude":"-80.243057"},{"name":"San Angelo, TX, USA","latitude":"31.442778","longitude":"-100.450279"},{"name":"Woodbridge, NJ, USA","latitude":"40.560001","longitude":"-74.290001"},{"name":"Vista, CA, USA","latitude":"33.193611","longitude":"-117.241112"},{"name":"South Bend, IN, USA","latitude":"41.676388","longitude":"-86.250275"},{"name":"Davenport, IA, USA","latitude":"41.543056","longitude":"-90.590836"},{"name":"Sparks, NV, USA","latitude":"39.554443","longitude":"-119.735558"},{"name":"Green Bay, WI, the US","latitude":"44.513332","longitude":"-88.015831"},{"name":"San Mateo, CA, USA","latitude":"37.554169","longitude":"-122.313057"},{"name":"Tyler, TX, USA","latitude":"32.349998","longitude":"-95.300003"},{"name":"League City, TX, USA","latitude":"29.499722","longitude":"-95.089722"},{"name":"Lewisville, TX, USA","latitude":"33.038334","longitude":"-97.006111"},{"name":"Meridian, ID, USA","latitude":"43.614166","longitude":"-116.398888"},{"name":"Waterbury, CT, USA","latitude":"41.55611","longitude":"-73.041389"},{"name":"Jurupa Valley, CA, USA","latitude":"34.0","longitude":"-117.48333"},{"name":"West Palm Beach, FL, USA","latitude":"26.709723","longitude":"-80.064163"},{"name":"Antioch, CA, USA","latitude":"38.005001","longitude":"-121.805832"},{"name":"High Point, NC, USA","latitude":"35.970554","longitude":"-79.997498"},{"name":"Miami Gardens, FL, USA","latitude":"25.942122","longitude":"-80.26992"},{"name":"Murrieta, CA, USA","latitude":"33.569443","longitude":"-117.202499"},{"name":"Springfield, IL, USA","latitude":"39.799999","longitude":"-89.650002"},{"name":"El Monte, CA, USA","latitude":"34.073334","longitude":"-118.027496"},{"name":"West Jordan, UT, USA","latitude":"40.606388","longitude":"-111.976112"},{"name":"College Station, TX, USA","latitude":"30.601389","longitude":"-96.314445"},{"name":"Fairfield, CA, USA","latitude":"38.257778","longitude":"-122.054169"},{"name":"Evansville, IN, USA","latitude":"37.977222","longitude":"-87.550552"},{"name":"Cambridge, MA, USA","latitude":"42.373611","longitude":"-71.110558"},{"name":"Richardson, TX, USA","latitude":"32.965557","longitude":"-96.715836"},{"name":"Berkeley, CA, USA","latitude":"37.871666","longitude":"-122.272781"},{"name":"Columbia, MS, USA","latitude":"38.951561","longitude":"-92.328636"},{"name":"Athens, GA, USA","latitude":"33.950001","longitude":"-83.383331"},{"name":"Lafayette, LA, USA","latitude":"30.216667","longitude":"-92.033333"},{"name":"Sterling Heights, MI, USA","latitude":"42.580276","longitude":"-83.030281"},{"name":"Visalia, CA, USA","latitude":"36.316666","longitude":"-119.300003"},{"name":"Hampton, VA, USA","latitude":"37.034946","longitude":"-76.360123"},{"name":"West Valley City, UT, USA","latitude":"40.689167","longitude":"-111.993889"},{"name":"Surprise, AZ, USA","latitude":"33.630554","longitude":"-112.366669"},{"name":"Thornton, CO, USA","latitude":"39.903057","longitude":"-104.954445"},{"name":"Miramar, FL, USA","latitude":"25.978889","longitude":"-80.282501"},{"name":"Murfreesboro, TN, USA","latitude":"35.846111","longitude":"-86.391945"},{"name":"Pasadena, CA, USA","latitude":"34.156113","longitude":"-118.131943"},{"name":"Bridgeport, CT, USA","latitude":"41.18639","longitude":"-73.195557"},{"name":"Paterson, NJ, USA","latitude":"40.914745","longitude":"-74.162827"},{"name":"Rockford, Il, the US","latitude":"42.259445","longitude":"-89.064445"},{"name":"Joliet, Illinois, USA","latitude":"41.520557","longitude":"-88.150558"},{"name":"Escondido, CA, USA","latitude":"33.124722","longitude":"-117.080833"},{"name":"Kansas City, KS, USA","latitude":"39.106667","longitude":"-94.676392"},{"name":"Springfield, MA, USA","latitude":"42.101391","longitude":"-72.590279"},{"name":"Springfield, MO, USA","latitude":"37.210388","longitude":"-93.297256"},{"name":"Corona, CA, USA","latitude":"33.866669","longitude":"-117.566666"},{"name":"Pembroke Pines, FL, USA","latitude":"26.012501","longitude":"-80.313614"},{"name":"Elk Grove, CA, USA","latitude":"38.438332","longitude":"-121.381943"},{"name":"Oceanside, CA, the US","latitude":"33.211666","longitude":"-117.325836"},{"name":"Newport News, VA, USA","latitude":"37.070831","longitude":"-76.484444"},{"name":"Sioux Falls, South Dakota, the US","latitude":"43.536388","longitude":"-96.731667"},{"name":"Vancouver, WA, USA","latitude":"45.633331","longitude":"-122.599998"},{"name":"Worcester, MA, USA","latitude":"42.271389","longitude":"-71.798889"},{"name":"Tallahassee, FL, USA","latitude":"30.455","longitude":"-84.253334"},{"name":"Columbus, GA, USA","latitude":"32.492222","longitude":"-84.940277"},{"name":"Augusta, GA, USA","latitude":"33.466667","longitude":"-81.966667"},{"name":"Montgomery, AL, USA","latitude":"32.361668","longitude":"-86.279167"},{"name":"Aurora, IL, USA","latitude":"41.763889","longitude":"-88.290001"},{"name":"Amarillo, TX, USA","latitude":"35.199165","longitude":"-101.845276"},{"name":"Modesto, CA, USA","latitude":"37.661388","longitude":"-120.994446"},{"name":"Garland, TX, USA","latitude":"32.907223","longitude":"-96.635277"},{"name":"Irvine, CA, the US","latitude":"33.669445","longitude":"-117.823059"},{"name":"Aurora, CO, USA","latitude":"39.710835","longitude":"-104.8125"},{"name":"Arlington, TX, USA","latitude":"32.705002","longitude":"-97.12278"},{"name":"Kansas City, MO, USA","latitude":"39.099724","longitude":"-94.578331"},{"name":"Memphis, TN, USA","latitude":"35.1175","longitude":"-89.971107"},{"name":"Indianapolis, IN, USA","latitude":"39.791","longitude":"-86.148003"},{"name":"Columbus, OH, USA","latitude":"39.983334","longitude":"-82.98333"},{"name":"Austin, TX, the US","latitude":"30.266666","longitude":"-97.73333"},{"name":"Dallas, TX, the US","latitude":"32.779167","longitude":"-96.808891"},{"name":"Redwood City, CA, USA","latitude":"37.487846","longitude":"-122.236115"},{"name":"Gastonia, NC, the USA","latitude":"35.25528","longitude":"-81.180275"},{"name":"New Braunfels, TX, the USA","latitude":"29.700001","longitude":"-98.116669"},{"name":"Palm Beach Gardens, FL,  USA","latitude":"26.838619","longitude":"-80.129967"},{"name":"Forestville, CA, USA","latitude":"38.473625","longitude":"-122.889992"},{"name":"Houston, TX, USA","latitude":"29.749907","longitude":"-95.358421"},{"name":"Muncie, IN, USA","latitude":"40.191891","longitude":"-85.401695"},{"name":"Palm Springs, CA, USA","latitude":"33.830517","longitude":"-116.545601"},{"name":"Hot Springs, AR, USA","latitude":"34.496212","longitude":"-93.05722"},{"name":"Richmond, VA, USA","latitude":"37.54129","longitude":"-77.434769"},{"name":"Fayetteville, AR, USA","latitude":"36.082157","longitude":"-94.171852"},{"name":"Yuma, AZ, USA","latitude":"32.698437","longitude":"-114.650398"},{"name":"Peoria, AZ, USA","latitude":"33.580944","longitude":"-112.237068"},{"name":"Tempe, AZ, USA","latitude":"33.427204","longitude":"-111.939896"},{"name":"Diamond Bar, CA, USA","latitude":"34.028622","longitude":"-117.810333"},{"name":"Auburn, AL, USA","latitude":"32.609856","longitude":"-85.480782"},{"name":"Hoover, AL, USA","latitude":"33.405746","longitude":"-86.811546"},{"name":"Decatur, AL, USA","latitude":"34.603817","longitude":"-86.985039"},{"name":"Bloomington, MN, USA","latitude":"44.840797","longitude":"-93.298279"},{"name":"Utqiagvik, AK, USA","latitude":"71.290558","longitude":"-156.788605"},{"name":"Fargo, ND, USA","latitude":"46.877186","longitude":"-96.789803"},{"name":"Odessa, TX, USA","latitude":"31.845682","longitude":"-102.367645"},{"name":"Orangeburg, SC, USA","latitude":"33.493317","longitude":"-80.855415"},{"name":"McAllen, TX, USA","latitude":"26.203407","longitude":"-98.230011"},{"name":"Foster, RI, USA","latitude":"41.85371","longitude":"-71.758125"},{"name":"Mannford, OK, USA","latitude":"36.133411","longitude":"-96.354454"},{"name":"Springfield, OH, USA","latitude":"39.925751","longitude":"-83.806694"},{"name":"Pasadena, TX, USA","latitude":"29.691063","longitude":"-95.209099"},{"name":"Lake Worth, FL, USA","latitude":"26.616756","longitude":"-80.068451"},{"name":"Novi, MI, USA","latitude":"42.480591","longitude":"-83.475494"},{"name":"Rochester, MN, USA","latitude":"44.016369","longitude":"-92.475395"},{"name":"London, KY, USA","latitude":"37.129986","longitude":"-84.084122"},{"name":"Mt Sterling, KY, USA","latitude":"38.056469","longitude":"-83.943253"},{"name":"Santa Clarita, CA, USA","latitude":"34.391663","longitude":"-118.542587"},{"name":"Overland Park, KS, USA","latitude":"38.984764","longitude":"-94.677658"},{"name":"St Cloud, MN, USA","latitude":"45.56023","longitude":"-94.172852"},{"name":"Sanford, FL, USA","latitude":"28.807674","longitude":"-81.274948"},{"name":"Albany, OR, USA","latitude":"44.636513","longitude":"-123.105927"},{"name":"Santee, CA, USA","latitude":"32.838383","longitude":"-116.973915"},{"name":"Bay Point, CA, USA","latitude":"38.033878","longitude":"-121.960709"},{"name":"Longmont, CO, USA","latitude":"40.167206","longitude":"-105.101929"},{"name":"Issaquah, WA, USA","latitude":"47.530102","longitude":"-122.032616"},{"name":"Akron, OH, USA","latitude":"41.081757","longitude":"-81.511452"},{"name":"Hammond, IN, USA","latitude":"41.58466","longitude":"-87.50016"},{"name":"Youngstown, OH, USA","latitude":"41.10297","longitude":"-80.647247"},{"name":"Hugo, MN, USA","latitude":"45.159966","longitude":"-92.99334"},{"name":"Yorba Linda, CA, USA","latitude":"33.888504","longitude":"-117.813255"},{"name":"Smiths Station, AL, USA","latitude":"32.540138","longitude":"-85.098549"},{"name":"Rapid City, SD, USA","latitude":"44.080544","longitude":"-103.231018"},{"name":"Hillsboro, OR, USA","latitude":"45.522896","longitude":"-122.98983"},{"name":"Elkhart, IN, USA","latitude":"41.681992","longitude":"-85.976669"},{"name":"Providence, RI, USA","latitude":"41.825226","longitude":"-71.418884"},{"name":"Rancho Cucamonga, CA, USA","latitude":"34.110489","longitude":"-117.594429"},{"name":"Orange, CA, USA","latitude":"33.787914","longitude":"-117.853104"},{"name":"Madison, WI, USA","latitude":"43.073051","longitude":"-89.40123"},{"name":"Yonkers, NY, USA","latitude":"40.93121","longitude":"-73.89875"},{"name":"Indio, CA, USA","latitude":"33.720577","longitude":"-116.215561"},{"name":"Jersey City, NJ, USA","latitude":"40.728157","longitude":"-74.077644"},{"name":"Bradenton, FL, USA","latitude":"27.498928","longitude":"-82.574821"},{"name":"South Burlington, VT, USA","latitude":"44.466995","longitude":"-73.170959"},{"name":"Long Beach, CA, USA","latitude":"33.77005","longitude":"-118.193741"},{"name":"Greenville, NC, USA","latitude":"35.612659","longitude":"-77.366356"},{"name":"Edison, NJ, USA","latitude":"40.522964","longitude":"-74.411674"},{"name":"Jonesboro, AR, USA","latitude":"35.835575","longitude":"-90.705025"},{"name":"Turrell, AR, USA","latitude":"35.379807","longitude":"-90.257874"},{"name":"Racine, WI, USA","latitude":"42.722702","longitude":"-87.784225"},{"name":"Las Cruces, NM, USA","latitude":"32.346596","longitude":"-106.78772"},{"name":"Alameda, CA, USA","latitude":"37.765205","longitude":"-122.241638"},{"name":"Walnut Creek, CA, USA","latitude":"37.910076","longitude":"-122.065186"},{"name":"Temecula, CA, USA","latitude":"33.487007","longitude":"-117.143784"},{"name":"Eastlake, OH, USA","latitude":"41.653934","longitude":"-81.450394"},{"name":"Yakima, WA, USA","latitude":"46.60207","longitude":"-120.505898"},{"name":"Dunedin, FL, USA","latitude":"28.018349","longitude":"-82.764473"},{"name":"St Paul, MN, USA","latitude":"44.949642","longitude":"-93.093124"},{"name":"Kent, WA, USA","latitude":"47.380932","longitude":"-122.23484"},{"name":"Dearborn Heights, MI, USA","latitude":"42.336983","longitude":"-83.273262"},{"name":"Chester, SC, USA","latitude":"34.704929","longitude":"-81.210251"},{"name":"Muskegon, MI, USA","latitude":"43.224194","longitude":"-86.235809"},{"name":"Hesperia, CA, USA","latitude":"34.426388","longitude":"-117.30088"},{"name":"Oakland, CA, USA","latitude":"37.804363","longitude":"-122.271111"},{"name":"Lancaster, CA, USA","latitude":"34.686787","longitude":"-118.15416"},{"name":"Homestead, FL, USA","latitude":"25.468721","longitude":"-80.477554"},{"name":"Norfolk, VA, USA","latitude":"36.850769","longitude":"-76.285873"},{"name":"Santa Cruz, CA, USA","latitude":"36.974117","longitude":"-122.030792"},{"name":"Daly City, CA, USA","latitude":"37.687923","longitude":"-122.470207"},{"name":"Cheektowaga, NY, USA","latitude":"42.902615","longitude":"-78.744576"},{"name":"Eldorado Springs, CO, USA","latitude":"39.932117","longitude":"-105.281639"},{"name":"Twin Falls, Idaho, USA","latitude":"42.562786","longitude":"-114.460503"},{"name":"Huntington, WV, USA","latitude":"38.413651","longitude":"-82.446732"},{"name":"Decatur, IL, USA","latitude":"39.842468","longitude":"-88.953148"},{"name":"Danbury, CT, USA","latitude":"41.394966","longitude":"-73.454079"},{"name":"Des Moines, Iowa, USA","latitude":"41.619549","longitude":"-93.598022"},{"name":"New Haven, CT, USA","latitude":"41.308273","longitude":"-72.927887"},{"name":"Fairbanks, AK, USA","latitude":"64.835365","longitude":"-147.776749"},{"name":"Nampa, Idaho, USA","latitude":"43.565468","longitude":"-116.560822"},{"name":"New Iberia, LA, USA","latitude":"30.005417","longitude":"-91.818665"},{"name":"Wilkes-Barre, PA, USA","latitude":"41.245708","longitude":"-75.881241"},{"name":"Petersburg, VA, USA","latitude":"37.227928","longitude":"-77.401924"},{"name":"Grand Rapids, MI, USA","latitude":"42.963795","longitude":"-85.670006"},{"name":"Lexington, Kentucky, US","latitude":"38.047989","longitude":"-84.50164"},{"name":"Hamden, CT, USA","latitude":"41.385826","longitude":"-72.904243"},{"name":"Moscow, Idaho, USA","latitude":"46.731705","longitude":"-116.999939"},{"name":"Pine Bluff, AR, USA","latitude":"34.2244","longitude":"-92.019211"},{"name":"Bellevue, WA, USA","latitude":"47.610378","longitude":"-122.200676"},{"name":"Lynchburg, VA, USA","latitude":"37.412762","longitude":"-79.146042"},{"name":"Dover, DE, USA","latitude":"39.161079","longitude":"-75.525681"},{"name":"Tuba City, Arizona, USA","latitude":"36.136906","longitude":"-111.240173"},{"name":"Medford, OR, USA","latitude":"42.326515","longitude":"-122.875595"},{"name":"Franklin, TN, USA","latitude":"35.925064","longitude":"-86.868889"},{"name":"Portland, OR, USA","latitude":"45.523064","longitude":"-122.676483"},{"name":"Philadelphia, PA, USA","latitude":"39.952583","longitude":"-75.165222"},{"name":"Miami, FL, USA","latitude":"25.761681","longitude":"-80.191788"},{"name":"Boston, MA, USA","latitude":"42.361145","longitude":"-71.057083"},{"name":"Phoenix, AZ, USA","latitude":"33.448376","longitude":"-112.074036"},{"name":"Erie, PA, USA","latitude":"42.129223","longitude":"-80.08506"},{"name":"Victorville, CA, USA","latitude":"34.536217","longitude":"-117.292763"},{"name":"Wilmington, DE, USA","latitude":"39.739071","longitude":"-75.539787"},{"name":"Fontana, CA, USA","latitude":"34.092232","longitude":"-117.435051"},{"name":"Jacksonville, FL, USA","latitude":"30.332184","longitude":"-81.655647"},{"name":"Soulsbyville, CA, USA","latitude":"37.984646","longitude":"-120.263802"},{"name":"Corvallis, OR, USA","latitude":"44.564568","longitude":"-123.262047"},{"name":"Des Plaines, IL, USA","latitude":"42.033363","longitude":"-87.8834"},{"name":"Richmond, CA, USA","latitude":"37.935757","longitude":"-122.347748"},{"name":"Grifton, NC, USA","latitude":"35.372662","longitude":"-77.437462"},{"name":"Redmond, WA, USA","latitude":"47.673988","longitude":"-122.121513"},{"name":"San Leandro, Oakland, CA, USA","latitude":"37.725685","longitude":"-122.15683"},{"name":"East Point, GA, USA","latitude":"33.679554","longitude":"-84.439369"},{"name":"Russellville, AL, USA","latitude":"34.501942","longitude":"-87.731789"},{"name":"Dothan, AL, USA","latitude":"31.223812","longitude":"-85.393356"},{"name":"Tampa, FL, USA","latitude":"27.964157","longitude":"-82.452606"},{"name":"Kenosha, WI, USA","latitude":"42.588081","longitude":"-87.822899"},{"name":"Springfield, OR, USA","latitude":"44.046204","longitude":"-123.023346"},{"name":"Revere, MA, USA","latitude":"42.408428","longitude":"-71.011993"},{"name":"New Haven, CT, USA","latitude":"41.310726","longitude":"-72.929916"},{"name":"Port Orange, FL, USA","latitude":"29.138315","longitude":"-80.995613"},{"name":"Manhattan, KS, USA","latitude":"39.183609","longitude":"-96.571671"},{"name":"Jeannette, PA, USA","latitude":"40.328125","longitude":"-79.615318"},{"name":"Baldwin Park, CA, USA","latitude":"34.085285","longitude":"-117.960899"},{"name":"El Centro, CA, USA","latitude":"32.793877","longitude":"-115.561516"},{"name":"Lakewood, CO, USA","latitude":"39.71085","longitude":"-105.081505"},{"name":"Fall River, MA, USA","latitude":"41.696629","longitude":"-71.149994"},{"name":"Mt Prospect, IL, USA","latitude":"42.066418","longitude":"-87.937294"},{"name":"Cary, NC, USA","latitude":"35.791538","longitude":"-78.78112"},{"name":"Toms River, NJ, USA","latitude":"39.954639","longitude":"-74.198456"},{"name":"Tigard, Portland, OR, USA","latitude":"45.431767","longitude":"-122.770454"},{"name":"Clarksville, TN, USA","latitude":"36.531364","longitude":"-87.353767"},{"name":"Kent, WA, USA","latitude":"47.37801","longitude":"-122.237381"},{"name":"North Las Vegas, NV, USA","latitude":"36.201946","longitude":"-115.120216"},{"name":"Walker, LA, USA","latitude":"30.487968","longitude":"-90.861488"},{"name":"Canton, OH, USA","latitude":"40.798946","longitude":"-81.378448"},{"name":"Macon, GA, USA","latitude":"32.838131","longitude":"-83.634705"},{"name":"Bartlett, TN, USA","latitude":"35.204441","longitude":"-89.87381"},{"name":"San Bernardino, CA, USA","latitude":"34.115784","longitude":"-117.302399"},{"name":"Lynn, MA, USA","latitude":"42.466763","longitude":"-70.949493"},{"name":"Evanston, IL, USA","latitude":"42.045597","longitude":"-87.688568"},{"name":"Poway, CA, USA","latitude":"32.96273","longitude":"-117.03624"},{"name":"Coffeyville, KS, USA","latitude":"37.036064","longitude":"-95.620537"},{"name":"Rio Linda, CA, USA","latitude":"38.691013","longitude":"-121.448563"},{"name":"Bellflower, CA, USA","latitude":"33.88221","longitude":"-118.117981"},{"name":"Westland, MI, USA","latitude":"42.324268","longitude":"-83.399017"},{"name":"Garden City, MI, USA","latitude":"42.325569","longitude":"-83.330933"},{"name":"Meridian, ID, USA","latitude":"43.612343","longitude":"-116.393707"},{"name":"Roswell, GA, USA","latitude":"34.022003","longitude":"-84.361549"},{"name":"Johns Creek, GA, USA","latitude":"34.028927","longitude":"-84.198578"},{"name":"New London, CT, USA","latitude":"41.355423","longitude":"-72.10276"},{"name":"Hanford, CA, US","latitude":"36.327728","longitude":"-119.645912"},{"name":"Saint Charles, MO, USA","latitude":"38.788105","longitude":"-90.497437"},{"name":"Carrollton, TX, USA","latitude":"32.974586","longitude":"-96.8899"},{"name":"Stamford, CT, USA","latitude":"41.053429","longitude":"-73.538734"},{"name":"Ames, IA, USA","latitude":"42.034534","longitude":"-93.620369"},{"name":"Inglewood, CA, USA","latitude":"33.961018","longitude":"-118.35537"},{"name":"Maryville, TN, USA","latitude":"35.760059","longitude":"-83.96685"},{"name":"Charleston, WV, USA","latitude":"38.349819","longitude":"-81.632622"},{"name":"Las Cruces, NM, USA","latitude":"32.326595","longitude":"-106.775436"},{"name":"Rochester Hills, MI, USA","latitude":"42.658516","longitude":"-83.152725"},{"name":"Centennial, CO, USA","latitude":"39.579231","longitude":"-104.876694"},{"name":"Lompoc, CA, USA","latitude":"34.639149","longitude":"-120.457939"},{"name":"North Richland Hills, TX, USA","latitude":"32.834293","longitude":"-97.228905"},{"name":"Lowell, MA, USA","latitude":"42.640999","longitude":"-71.316711"},{"name":"Round Rock, TX, USA","latitude":"30.508255","longitude":"-97.678894"},{"name":"Torrance, CA, USA","latitude":"33.840763","longitude":"-118.345413"},{"name":"Champaign, IL, USA","latitude":"40.116421","longitude":"-88.243385"},{"name":"Gary, IN, USA","latitude":"41.595161","longitude":"-87.356934"},{"name":"Port Charlotte, FL, USA","latitude":"26.979605","longitude":"-82.075424"},{"name":"Cedar Falls, IA, USA","latitude":"42.534901","longitude":"-92.445312"},{"name":"Great Falls, MT, USA","latitude":"47.506187","longitude":"-111.283691"},{"name":"Brentwood, TN, USA","latitude":"36.033115","longitude":"-86.782776"},{"name":"Syracuse, NY, USA","latitude":"43.088947","longitude":"-76.15448"},{"name":"Grand Saline, TX, USA","latitude":"32.673466","longitude":"-95.709404"},{"name":"Ponte Vedra Beach, FL, USA","latitude":"30.240005","longitude":"-81.385262"},{"name":"Abilene, TX, USA","latitude":"32.448734","longitude":"-99.733147"},{"name":"Valdosta, GA, USA","latitude":"30.832703","longitude":"-83.278488"},{"name":"The Villages, FL, USA","latitude":"28.927019","longitude":"-82.003761"},{"name":"Casa Grande, AZ, USA","latitude":"32.881893","longitude":"-111.768036"},{"name":"Gresham Terrace, Gresham, OR, USA","latitude":"45.502842","longitude":"-122.427444"},{"name":"Roseville, CA, USA","latitude":"38.752125","longitude":"-121.28801"},{"name":"Eau Claire, WI, USA","latitude":"44.811348","longitude":"-91.498497"},{"name":"Lake Charles, LA, USA","latitude":"30.212942","longitude":"-93.21891"},{"name":"Biloxi, MS, USA","latitude":"30.396032","longitude":"-88.885307"},{"name":"Perris, CA, USA","latitude":"33.78252","longitude":"-117.228645"},{"name":"Beaverton, OR, USA","latitude":"45.485168","longitude":"-122.804489"},{"name":"Mission Viejo, CA, USA","latitude":"33.600021","longitude":"-117.671997"},{"name":"Madera, CA, USA","latitude":"36.95953","longitude":"-120.062866"},{"name":"Bend, OR, USA","latitude":"44.058174","longitude":"-121.315308"},{"name":"Greenville, SC, USA","latitude":"34.852619","longitude":"-82.394012"},{"name":"North Fort Myers, FL, USA","latitude":"26.667294","longitude":"-81.880089"},{"name":"Vacaville, CA, USA","latitude":"38.356579","longitude":"-121.987747"},{"name":"Elgin, IL, USA","latitude":"42.035408","longitude":"-88.28257"},{"name":"Hyrum, UT, USA","latitude":"41.632893","longitude":"-111.85112"},{"name":"Cape Canaveral, Florida, USA","latitude":"28.396837","longitude":"-80.605659"},{"name":"Encinitas, CA, USA","latitude":"33.039139","longitude":"-117.295425"},{"name":"Ocala, FL, USA","latitude":"29.187199","longitude":"-82.140091"},{"name":"Fremont, CA, USA","latitude":"37.548271","longitude":"-121.988571"},{"name":"Fayetteville, NC, USA","latitude":"35.052666","longitude":"-78.878357"},{"name":"O'Fallon, MO, USA","latitude":"38.810608","longitude":"-90.699844"},{"name":"West Covina, CA, USA","latitude":"34.068623","longitude":"-117.93895"},{"name":"Pico Rivera, CA, USA","latitude":"33.98307","longitude":"-118.096733"},{"name":"Haines City, FL, USA","latitude":"28.114183","longitude":"-81.617851"},{"name":"Joplin, Missouri, USA","latitude":"37.084229","longitude":"-94.513283"},{"name":"Rock Hill, SC, USA","latitude":"34.924866","longitude":"-81.025078"},{"name":"Lee's Summit, MO, USA","latitude":"38.910843","longitude":"-94.382172"},{"name":"Dearborn, MI, USA","latitude":"42.322262","longitude":"-83.176315"},{"name":"Newark, NJ, USA","latitude":"40.735657","longitude":"-74.172363"},{"name":"Pontiac, MI, USA","latitude":"42.638924","longitude":"-83.291046"},{"name":"Salem, MA, USA","latitude":"42.519539","longitude":"-70.896713"},{"name":"Chattanooga, TN, USA","latitude":"35.045631","longitude":"-85.309677"},{"name":"Palmdale, CA, USA","latitude":"34.579449","longitude":"-118.109291"},{"name":"Redondo Beach, CA, USA","latitude":"33.849182","longitude":"-118.388405"},{"name":"Tuscaloosa, AL, USA","latitude":"33.189281","longitude":"-87.565155"},{"name":"Davie, FL, USA","latitude":"26.076477","longitude":"-80.252113"},{"name":"Hattiesburg, MS, USA","latitude":"31.32712","longitude":"-89.290337"},{"name":"Victoria, TX, USA","latitude":"28.798952","longitude":"-97.028503"},{"name":"Casas Adobes, AZ, USA","latitude":"32.319054","longitude":"-111.001053"},{"name":"Big Spring, TX, USA","latitude":"32.250992","longitude":"-101.479073"},{"name":"Battle Creek, MI, USA","latitude":"42.321152","longitude":"-85.17971"},{"name":"Eugene, OR, USA","latitude":"44.052071","longitude":"-123.086754"},{"name":"Marrero, LA, USA","latitude":"29.899372","longitude":"-90.100349"},{"name":"Castle Rock, CO, USA","latitude":"39.374912","longitude":"-104.853859"},{"name":"Old Bridge Township, NJ, USA","latitude":"40.402714","longitude":"-74.305428"},{"name":"Huntington Beach, CA, USA","latitude":"33.660057","longitude":"-117.99897"},{"name":"Havertown, PA, USA","latitude":"39.981461","longitude":"-75.309387"},{"name":"Brea, CA, USA","latitude":"33.916679","longitude":"-117.900063"},{"name":"Virginia Beach, VA, USA","latitude":"36.86314","longitude":"-76.015778"},{"name":"Warren, MI, USA","latitude":"42.491943","longitude":"-83.023888"},{"name":"Anderson, SC, USA","latitude":"34.503441","longitude":"-82.650131"},{"name":"White Plains, NY, USA","latitude":"41.033985","longitude":"-73.762909"},{"name":"Lansing, MI, USA","latitude":"42.732536","longitude":"-84.555534"},{"name":"Bismarck, ND, USA","latitude":"46.825905","longitude":"-100.778275"},{"name":"Spring, TX, USA","latitude":"30.085136","longitude":"-95.425186"},{"name":"Kissimmee, FL, USA","latitude":"28.291956","longitude":"-81.40757"},{"name":"Eden Prairie, MN, USA","latitude":"44.852463","longitude":"-93.475113"},{"name":"Louisville, KY, USA","latitude":"38.328732","longitude":"-85.764771"},{"name":"Florence, SC, USA","latitude":"34.195435","longitude":"-79.762566"},{"name":"Nashua, NH, USA","latitude":"42.765366","longitude":"-71.467567"},{"name":"Greece, NY, USA","latitude":"43.209785","longitude":"-77.693062"},{"name":"Bolingbrook, IL, USA","latitude":"41.698643","longitude":"-88.068398"},{"name":"Midland, TX, USA","latitude":"32.000507","longitude":"-102.077408"},{"name":"El Cajon, CA, USA","latitude":"32.794773","longitude":"-116.962524"},{"name":"Chula Vista, CA, USA","latitude":"32.639954","longitude":"-117.106705"},{"name":"Raleigh, NC, USA","latitude":"35.787743","longitude":"-78.644257"},{"name":"Tewksbury, MA, USA","latitude":"42.610649","longitude":"-71.234222"},{"name":"Williamsport, PA, USA","latitude":"41.242451","longitude":"-77.002831"},{"name":"Olympia, WA, USA","latitude":"47.037872","longitude":"-122.900696"},{"name":"Alhambra, CA, USA","latitude":"34.095287","longitude":"-118.127014"},{"name":"Sandy Springs, GA, USA","latitude":"33.935101","longitude":"-84.360924"},{"name":"Frederick, MD, USA","latitude":"39.412327","longitude":"-77.425461"},{"name":"Erie, PA, USA","latitude":"42.129223","longitude":"-80.08506"},{"name":"Mountain View, CA, USA","latitude":"37.386051","longitude":"-122.083855"},{"name":"Eagle, ID, USA","latitude":"43.695442","longitude":"-116.354012"},{"name":"Sugar Land, TX, USA","latitude":"29.619678","longitude":"-95.634949"},{"name":"Jackson, MS, USA","latitude":"32.298756","longitude":"-90.184807"},{"name":"Harrisburg, PA, USA","latitude":"40.26368","longitude":"-76.890739"},{"name":"Edina, MN, USA","latitude":"44.889687","longitude":"-93.349953"},{"name":"Metairie, LA, USA","latitude":"29.984093","longitude":"-90.152855"},{"name":"Rancho Cordova, CA, USA","latitude":"38.589073","longitude":"-121.302727"},{"name":"Mobile, AL, USA","latitude":"30.695366","longitude":"-88.039894"},{"name":"San Diego, CA, USA","latitude":"32.715736","longitude":"-117.161087"},{"name":"East Peoria, IL, USA","latitude":"40.666149","longitude":"-89.580101"},{"name":"North Charleston, SC, USA","latitude":"32.854622","longitude":"-79.974808"},{"name":"Gulfport, MS, USA","latitude":"30.36742","longitude":"-89.092819"},{"name":"Cherry Hill, NJ, USA","latitude":"39.926811","longitude":"-75.024628"},{"name":"Cincinnati, OH, USA","latitude":"39.103119","longitude":"-84.512016"},{"name":"Glendale, CA, USA","latitude":"34.142509","longitude":"-118.255074"},{"name":"Reading, PA, USA","latitude":"40.335648","longitude":"-75.926872"},{"name":"Burien, WA, USA","latitude":"47.470379","longitude":"-122.346794"},{"name":"Largo, FL, USA","latitude":"27.909468","longitude":"-82.787323"},{"name":"Palm Harbor, FL, USA","latitude":"28.078072","longitude":"-82.76371"},{"name":"Turlock, CA, USA","latitude":"37.494656","longitude":"-120.846596"},{"name":"Camilla, GA, USA","latitude":"31.231293","longitude":"-84.210464"},{"name":"Flagstaff, AZ, USA","latitude":"35.198284","longitude":"-111.651299"},{"name":"Napa, CA, USA","latitude":"38.297539","longitude":"-122.286865"},{"name":"Greenwich, CT, USA","latitude":"41.027054","longitude":"-73.620071"},{"name":"Flower Mound, TX, USA","latitude":"33.014568","longitude":"-97.096954"},{"name":"Plano, TX, USA","latitude":"33.019844","longitude":"-96.698883"},{"name":"Atlanta, GA, USA","latitude":"33.753746","longitude":"-84.38633"},{"name":"Marietta, GA, USA","latitude":"33.952602","longitude":"-84.549934"},{"name":"Hopkinsville, KY, USA","latitude":"36.865601","longitude":"-87.488617"},{"name":"Thousand Oaks, CA, USA","latitude":"34.170563","longitude":"-118.837593"},{"name":"Omaha, NE, USA","latitude":"41.25716","longitude":"-95.995102"},{"name":"Newark, CA, USA","latitude":"37.529659","longitude":"-122.040237"},{"name":"Haltom City, TX, USA","latitude":"32.799576","longitude":"-97.26918"},{"name":"Smithtown, NY, USA","latitude":"40.85593","longitude":"-73.200668"},{"name":"Burbank, CA, USA","latitude":"34.18084","longitude":"-118.308968"},{"name":"La Crosse, WI, USA","latitude":"43.801357","longitude":"-91.239578"},{"name":"Brookfield, WI, USA","latitude":"43.061615","longitude":"-88.107948"},{"name":"Arden-Arcade, CA, USA","latitude":"38.600807","longitude":"-121.377037"},{"name":"Mercer Island, WA, USA","latitude":"47.570656","longitude":"-122.222069"},{"name":"Petaluma, CA, USA","latitude":"38.244923","longitude":"-122.626991"},{"name":"Yorktown, VA, USA","latitude":"37.238754","longitude":"-76.509674"},{"name":"Avon, CO, USA","latitude":"39.633068","longitude":"-106.522217"},{"name":"Weston, FL, USA","latitude":"26.103039","longitude":"-80.401382"},{"name":"Novato, CA, USA","latitude":"38.108086","longitude":"-122.57515"},{"name":"Winona, MN, USA","latitude":"44.049999","longitude":"-91.633331"},{"name":"Auburn, WA, USA","latitude":"47.307323","longitude":"-122.228455"},{"name":"Murray, UT, USA","latitude":"40.666893","longitude":"-111.887993"},{"name":"Lehi, UT, USA","latitude":"40.391617","longitude":"-111.850769"},{"name":"Altadena, CA, USA","latitude":"34.190163","longitude":"-118.131317"},{"name":"Clovis, CA, USA","latitude":"36.82523","longitude":"-119.702919"},{"name":"Mohave Valley, AZ, USA","latitude":"34.93306","longitude":"-114.588852"},{"name":"Dundalk, MD, USA","latitude":"39.250664","longitude":"-76.520515"},{"name":"Newark, DE, USA","latitude":"39.683723","longitude":"-75.749657"},{"name":"Gilroy, CA, USA","latitude":"37.005783","longitude":"-121.568275"},{"name":"St. Petersburg, FL, USA","latitude":"27.773056","longitude":"-82.639999"},{"name":"Doral, FL, USA","latitude":"25.819542","longitude":"-80.355331"},{"name":"Cheyenne, WY, USA","latitude":"41.161079","longitude":"-104.80545"},{"name":"Dublin, CA, USA","latitude":"37.702152","longitude":"-121.935791"},{"name":"Hayward, CA, USA","latitude":"37.668819","longitude":"-122.080795"},{"name":"Livermore, CA, USA","latitude":"37.681873","longitude":"-121.768005"},{"name":"St. George, UT, USA","latitude":"37.095169","longitude":"-113.575974"},{"name":"Brownsville, TX, USA","latitude":"25.901747","longitude":"-97.497482"},{"name":"Centreville, VA, USA","latitude":"38.840389","longitude":"-77.428879"},{"name":"Tracy, CA, USA","latitude":"37.739651","longitude":"-121.425224"},{"name":"Fort Collins, CO, USA","latitude":"40.585258","longitude":"-105.084419"},{"name":"Port Arthur, TX, USA","latitude":"29.884951","longitude":"-93.939949"},{"name":"Henderson, NV, USA","latitude":"36.039524","longitude":"-114.98172"},{"name":"Allen, TX, USA","latitude":"33.103172","longitude":"-96.670547"},{"name":"Redding, CA, USA","latitude":"40.58654","longitude":"-122.391678"},{"name":"Chico, CA, USA","latitude":"39.728493","longitude":"-121.837479"},{"name":"DeSoto, TX, USA","latitude":"32.596287","longitude":"-96.862679"},{"name":"Milpitas, CA, USA","latitude":"37.432335","longitude":"-121.899574"},{"name":"Flint, MI, USA","latitude":"43.016193","longitude":"-83.705521"},{"name":"La Jolla, San Diego, CA, USA","latitude":"32.842674","longitude":"-117.257767"},{"name":"Quincy, MA, USA","latitude":"42.255459","longitude":"-71.002579"},{"name":"Killeen, TX, USA","latitude":"31.117119","longitude":"-97.727798"},{"name":"Scranton, PA, USA","latitude":"41.40897","longitude":"-75.662415"},{"name":"Williston, ND, USA","latitude":"48.146969","longitude":"-103.617973"},{"name":"Little Rock, AR, USA","latitude":"34.746483","longitude":"-92.289597"},{"name":"Scranton, PA, USA","latitude":"41.414925","longitude":"-75.669708"},{"name":"Dayton, OH, USA","latitude":"39.758949","longitude":"-84.191605"},{"name":"Norwalk, CA, USA","latitude":"33.902237","longitude":"-118.081734"},{"name":"Northside, Jacksonville, FL, USA","latitude":"30.49015","longitude":"-81.647346"},{"name":"Friendswood, TX, USA","latitude":"29.5294","longitude":"-95.201042"},{"name":"Michigan City, IN, USA","latitude":"41.723541","longitude":"-86.899284"},{"name":"Bangor, ME, USA","latitude":"44.808147","longitude":"-68.795013"},{"name":"Deerfield Beach, FL, USA","latitude":"26.329422","longitude":"-80.088615"},{"name":"Hempstead, NY, USA","latitude":"40.706928","longitude":"-73.621788"},{"name":"Provo, UT, USA","latitude":"40.233845","longitude":"-111.658531"},{"name":"Birmingham, AL, USA","latitude":"33.543682","longitude":"-86.779633"},{"name":"Owasso, OK, USA","latitude":"36.269539","longitude":"-95.854713"},{"name":"Oak Ridge, TN, USA","latitude":"36.010357","longitude":"-84.269646"},{"name":"Concord, CA, USA","latitude":"37.989128","longitude":"-122.043686"},{"name":"Titusville, FL, USA","latitude":"28.612219","longitude":"-80.807556"},{"name":"Jackson, MI, USA","latitude":"42.245777","longitude":"-84.405968"},{"name":"Canonsburg, PA, USA","latitude":"40.262569","longitude":"-80.187279"},{"name":"Germantown, MD, USA","latitude":"39.173161","longitude":"-77.271652"},{"name":"Tarrant, AL, USA","latitude":"33.589027","longitude":"-86.768127"},{"name":"Minneapolis, MN, USA","latitude":"44.986656","longitude":"-93.258133"},{"name":"Dana Point, CA, USA","latitude":"33.466972","longitude":"-117.698105"},{"name":"Wilmington, NC, USA","latitude":"34.225727","longitude":"-77.94471"},{"name":"Commerce City, CO, USA","latitude":"39.813019","longitude":"-104.93351"},{"name":"Puyallup, WA, USA","latitude":"47.185379","longitude":"-122.2929"},{"name":"La Habra, CA, USA","latitude":"33.931957","longitude":"-117.946175"},{"name":"Norman, OK, USA","latitude":"35.222569","longitude":"-97.439476"},{"name":"Niagara Falls, NY, USA","latitude":"43.092461","longitude":"-79.04715"},{"name":"Norwich, CT, USA","latitude":"41.532227","longitude":"-72.088852"},{"name":"Alief, Houston, TX, USA","latitude":"29.68272","longitude":"-95.593239"},{"name":"Suitland, Suitland-Silver Hill, MD, USA","latitude":"38.84861","longitude":"-76.924446"},{"name":"Covina, CA, USA","latitude":"34.090008","longitude":"-117.890343"},{"name":"New Orleans, LA, USA","latitude":"29.951065","longitude":"-90.071533"},{"name":"Prescott Valley, AZ, USA","latitude":"34.610023","longitude":"-112.31572"},{"name":"Levittown, NY, USA","latitude":"40.725933","longitude":"-73.51429"},{"name":"Arvada, CO, USA","latitude":"39.803261","longitude":"-105.090408"},{"name":"Prichard, Mobile, AL, USA","latitude":"30.73918","longitude":"-88.080482"},{"name":"San Tan Valley, AZ, USA","latitude":"33.170277","longitude":"-111.57222"},{"name":"Livonia, MI, USA","latitude":"42.36837","longitude":"-83.352707"},{"name":"Conroe, TX, USA","latitude":"30.311876","longitude":"-95.456055"},{"name":"Marion, IA, USA","latitude":"42.033279","longitude":"-91.596893"},{"name":"Helena, MT, USA","latitude":"46.595806","longitude":"-112.027031"},{"name":"Saint Paul, MN, USA","latitude":"44.953705","longitude":"-93.089958"},{"name":"Irving, TX, USA","latitude":"32.819595","longitude":"-96.945419"},{"name":"Pomona, CA, USA","latitude":"34.055103","longitude":"-117.749992"},{"name":"Avondale, AZ, USA","latitude":"33.435596","longitude":"-112.349602"},{"name":"Portsmouth, VA, USA","latitude":"36.835426","longitude":"-76.298271"},{"name":"West Lafayette, IN, USA","latitude":"40.425869","longitude":"-86.908066"},{"name":"Newport Beach, CA, USA","latitude":"33.628342","longitude":"-117.927933"},{"name":"Ventura, CA, USA","latitude":"34.274647","longitude":"-119.229034"},{"name":"Meridian, MS, USA","latitude":"32.364311","longitude":"-88.703659"},{"name":"Springdale, AR, USA","latitude":"36.186745","longitude":"-94.128815"},{"name":"Palo Alto, CA, USA","latitude":"37.468319","longitude":"-122.143936"},{"name":"Spokane, WA, USA","latitude":"47.658779","longitude":"-117.426048"},{"name":"Moreno Valley, CA, USA","latitude":"33.942467","longitude":"-117.229675"},{"name":"Gilbert, AZ, USA","latitude":"33.360355","longitude":"-111.801682"},{"name":"Lawton, OK, USA","latitude":"34.603565","longitude":"-98.395927"},{"name":"Meriden, CT, USA","latitude":"41.546616","longitude":"-72.78923"},{"name":"Annapolis, MD, USA","latitude":"38.978443","longitude":"-76.49218"},{"name":"Rochester, NY, USA","latitude":"43.16103","longitude":"-77.610924"},{"name":"Nacogdoches, TX, USA","latitude":"31.603514","longitude":"-94.655487"},{"name":"Liberty Park, Salt Lake City, UT, USA","latitude":"40.746445","longitude":"-111.874916"},{"name":"Dorchester, Boston, MA, USA","latitude":"42.302708","longitude":"-71.072105"},{"name":"Oakton, VA, USA","latitude":"38.880943","longitude":"-77.300819"},{"name":"Huntington Park, CA, USA","latitude":"33.984932","longitude":"-118.227821"},{"name":"Cedar Park, TX, USA","latitude":"30.505198","longitude":"-97.82029"},{"name":"St. Peters, MO, USA","latitude":"38.787472","longitude":"-90.62989"},{"name":"Grand Island, NE, USA","latitude":"40.929077","longitude":"-98.368149"},{"name":"Shawnee, KS, USA","latitude":"39.022846","longitude":"-94.715187"},{"name":"Glenwood Springs, CO, USA","latitude":"39.563354","longitude":"-107.332993"},{"name":"Hawthorne, CA, USA","latitude":"33.919434","longitude":"-118.353996"},{"name":"Buffalo Grove, IL, USA","latitude":"42.166283","longitude":"-87.963135"},{"name":"Temple, TX, USA","latitude":"31.105862","longitude":"-97.353287"},{"name":"Silver Spring, MD, USA","latitude":"38.994373","longitude":"-77.029778"},{"name":"Mira Mesa, San Diego, CA, USA","latitude":"32.918476","longitude":"-117.138237"},{"name":"Sunrise Manor, NV, USA","latitude":"36.211082","longitude":"-115.073059"},{"name":"Manchester, NH, USA","latitude":"43.008663","longitude":"-71.454391"},{"name":"Baton Rouge, LA, USA","latitude":"30.471165","longitude":"-91.147385"},{"name":"Bakersfield, CA, USA","latitude":"35.393528","longitude":"-119.043732"},{"name":"San Juan Capistrano, CA, USA","latitude":"33.501694","longitude":"-117.662552"},{"name":"San Marcos, TX, USA","latitude":"29.890661","longitude":"-97.91153"},{"name":"Grand Prairie, TX, USA","latitude":"32.738773","longitude":"-97.003098"},{"name":"Greeley, CO, USA","latitude":"40.391537","longitude":"-104.681168"},{"name":"Broomfield, CO, USA","latitude":"39.92054","longitude":"-105.086647"},{"name":"Boulder, CO, USA","latitude":"40.014984","longitude":"-105.270546"},{"name":"Ken Caryl, CO, USA","latitude":"39.575821","longitude":"-105.112206"},{"name":"Westminster, CO, USA","latitude":"39.842285","longitude":"-105.043716"},{"name":"Arvada, CO, USA","latitude":"39.802765","longitude":"-105.087486"},{"name":"Cherry Creek Reservoir, Aurora, CO, USA","latitude":"39.644825","longitude":"-104.845963"},{"name":"Costa Mesa, CA, USA","latitude":"33.641132","longitude":"-117.918671"},{"name":"Santa Monica, Los Angeles, CA, USA","latitude":"34.024212","longitude":"-118.496475"},{"name":"Santa Clara, CA, USA","latitude":"37.354107","longitude":"-121.955238"},{"name":"Anchorage, AK, USA","latitude":"61.217381","longitude":"-149.863129"},{"name":"Ridgecrest, CA, USA","latitude":"35.633862","longitude":"-117.679367"},{"name":"Idaho Falls, ID, USA","latitude":"43.49165","longitude":"-112.033966"},{"name":"Carbondale, IL, USA","latitude":"37.701206","longitude":"-89.22821"},{"name":"Cape Coral, FL, USA","latitude":"26.562855","longitude":"-81.949532"},{"name":"Belleville, IL, USA","latitude":"38.526684","longitude":"-89.991074"},{"name":"Midland, MI, USA","latitude":"43.618183","longitude":"-84.234238"},{"name":"McKinney, TX, USA","latitude":"33.214561","longitude":"-96.614456"},{"name":"Lawndale, CA, USA","latitude":"33.888088","longitude":"-118.353477"},{"name":"Bethesda, MD, USA","latitude":"38.984653","longitude":"-77.094711"},{"name":"Westlake, OH, USA","latitude":"41.46331","longitude":"-81.915436"},{"name":"Loveland, CO, USA","latitude":"40.398857","longitude":"-105.052643"},{"name":"Galesburg, IL, USA","latitude":"40.953976","longitude":"-90.362549"},{"name":"Jefferson City, MO, USA","latitude":"38.579575","longitude":"-92.174782"},{"name":"Durham, NC, USA","latitude":"35.994034","longitude":"-78.898621"},{"name":"Ashland, OR, USA","latitude":"42.194576","longitude":"-122.70948"},{"name":"Florence, AL, USA","latitude":"34.799809","longitude":"-87.677254"},{"name":"Tacoma, WA, USA","latitude":"47.258728","longitude":"-122.465973"},{"name":"Daytona Beach, FL, USA","latitude":"29.218103","longitude":"-81.031723"},{"name":"Fond du Lac, WI, USA","latitude":"43.774071","longitude":"-88.455734"},{"name":"Beaumont, TX, USA","latitude":"30.080173","longitude":"-94.126556"},{"name":"Mansfield, OH, USA","latitude":"40.763901","longitude":"-82.503891"},{"name":"Frisco, TX, USA","latitude":"33.155373","longitude":"-96.818733"},{"name":"Cedar Rapids, IA, USA","latitude":"41.977879","longitude":"-91.665627"},{"name":"Salinas, CA, USA","latitude":"36.677738","longitude":"-121.655502"},{"name":"Kingman, AZ, USA","latitude":"35.189442","longitude":"-114.053009"},{"name":"San Clemente, CA, USA","latitude":"33.426971","longitude":"-117.611992"},{"name":"Billings, MT, USA","latitude":"45.787636","longitude":"-108.489304"},{"name":"Dunwoody, GA, USA","latitude":"33.946213","longitude":"-84.334648"},{"name":"Buffalo, NY, USA","latitude":"42.88023","longitude":"-78.878738"},{"name":"Pensacola, FL, USA","latitude":"30.433283","longitude":"-87.240372"},{"name":"Denver, CO, USA","latitude":"39.742043","longitude":"-104.991531"},{"name":"Edmond, OK, USA","latitude":"35.657295","longitude":"-97.478256"},{"name":"Walnut, CA, USA","latitude":"34.02029","longitude":"-117.865341"},{"name":"Stratford, CT, USA","latitude":"41.18454","longitude":"-73.133163"},{"name":"Compton, CA, USA","latitude":"33.895847","longitude":"-118.22007"},{"name":"Georgetown, TX, USA","latitude":"30.633263","longitude":"-97.677986"},{"name":"Cooper City, FL, USA","latitude":"26.05731","longitude":"-80.271713"},{"name":"Carmel, Indiana, US","latitude":"39.978371","longitude":"-86.118042"},{"name":"Pearland, TX, USA","latitude":"29.563902","longitude":"-95.28511"},{"name":"Lakeland, FL, USA","latitude":"28.039465","longitude":"-81.949806"},{"name":"Lafayette, IN, USA","latitude":"40.416702","longitude":"-86.87529"},{"name":"Palm Coast, FL, USA","latitude":"29.584452","longitude":"-81.20787"},{"name":"St. Louis, MO, USA","latitude":"38.627003","longitude":"-90.199402"},{"name":"Everett, WA, USA","latitude":"47.982567","longitude":"-122.193375"},{"name":"Travis Air Force Base, Fairfield, CA, USA","latitude":"38.272118","longitude":"-121.939857"},{"name":"Cleveland, TN, USA","latitude":"35.159519","longitude":"-84.87661"},{"name":"Lake Forest, CA, USA","latitude":"33.650066","longitude":"-117.6931"},{"name":"Key West, FL, USA","latitude":"24.555059","longitude":"-81.779984"},{"name":"Olathe, KS, USA","latitude":"38.881397","longitude":"-94.81913"},{"name":"Carlsbad, TX, USA","latitude":"31.604727","longitude":"-100.640228"},{"name":"Apache Junction, AZ, USA","latitude":"33.415051","longitude":"-111.549576"},{"name":"West Hartford, CT, USA","latitude":"41.762085","longitude":"-72.742012"},{"name":"Renton, WA, USA","latitude":"47.48288","longitude":"-122.217064"},{"name":"Rohnert Park, CA, USA","latitude":"38.339638","longitude":"-122.701096"},{"name":"Nashville, TN, USA","latitude":"36.174465","longitude":"-86.76796"},{"name":"Fort Lauderdale, FL, USA","latitude":"26.122438","longitude":"-80.137314"},{"name":"Pompano Beach, FL, USA","latitude":"26.247236","longitude":"-80.106125"},{"name":"Winston-Salem, NC, USA","latitude":"36.099861","longitude":"-80.244217"},{"name":"Sunnyvale, CA, USA","latitude":"37.368832","longitude":"-122.036346"},{"name":"Shoreline, WA, USA","latitude":"47.755653","longitude":"-122.341515"},{"name":"Eagan, MN, USA","latitude":"44.804131","longitude":"-93.166885"},{"name":"Monterey, CA, USA","latitude":"36.603954","longitude":"-121.89846"},{"name":"Orem, Utah, the US","latitude":"40.296898","longitude":"-111.694649"},{"name":"Riverside, CA, USA","latitude":"33.95335","longitude":"-117.396156"},{"name":"Milwaukee, WI, USA","latitude":"43.038902","longitude":"-87.906471"},{"name":"Iowa City, IA, USA","latitude":"41.661129","longitude":"-91.530167"},{"name":"Mio, MI, USA","latitude":"44.652237","longitude":"-84.12973"},{"name":"Burlington, VT, USA","latitude":"44.475883","longitude":"-73.212074"},{"name":"Gardena, CA, USA","latitude":"33.893787","longitude":"-118.307991"},{"name":"Lincoln, NE, USA","latitude":"40.806862","longitude":"-96.681679"},{"name":"Charleston, SC, USA","latitude":"32.776566","longitude":"-79.930923"},{"name":"Fitchburg, WI, USA","latitude":"43.002316","longitude":"-89.424095"},{"name":"Bossier City, LA, USA","latitude":"32.515984","longitude":"-93.732124"},{"name":"Hyattsville, MD, USA","latitude":"38.955944","longitude":"-76.945534"},{"name":"Pueblo, CO, USA","latitude":"38.276463","longitude":"-104.604607"},{"name":"Aiken, SC, USA","latitude":"33.566574","longitude":"-81.719398"},{"name":"Greensboro, NC, USA","latitude":"36.044659","longitude":"-79.766235"},{"name":"Enid, OK, USA","latitude":"36.395588","longitude":"-97.878387"},{"name":"Seattle, WA, USA","latitude":"47.608013","longitude":"-122.335167"},{"name":"Port St. Lucie, FL, USA","latitude":"27.29369","longitude":"-80.353317"},{"name":"Cleveland, OH, USA","latitude":"41.505493","longitude":"-81.68129"},{"name":"Hartford, CT, USA","latitude":"41.76371","longitude":"-72.685097"},{"name":"Grand Junction, CO, USA","latitude":"39.071445","longitude":"-108.549728"},{"name":"Ruston, LA, USA","latitude":"32.523205","longitude":"-92.637924"},{"name":"Hialeah, FL, USA","latitude":"25.857595","longitude":"-80.278107"},{"name":"Tucson, AZ, USA","latitude":"32.25346","longitude":"-110.911789"},{"name":"Poughkeepsie, NY, USA","latitude":"41.70829","longitude":"-73.923912"},{"name":"Southaven, MS, USA","latitude":"34.988983","longitude":"-90.012589"},{"name":"Santa Ana, CA, USA","latitude":"33.745571","longitude":"-117.867836"},{"name":"Mesa, AZ, USA","latitude":"33.424564","longitude":"-111.833267"},{"name":"Bountiful, UT, USA","latitude":"40.889389","longitude":"-111.880768"},{"name":"Wichita Falls, TX, USA","latitude":"33.930828","longitude":"-98.484879"},{"name":"Tulsa, OK, USA","latitude":"36.15398","longitude":"-95.992775"},{"name":"Texarkana, AR, USA","latitude":"33.441792","longitude":"-94.037689"},{"name":"Lakewood Township, NJ, USA","latitude":"40.087528","longitude":"-74.208183"},{"name":"Anaheim, CA, USA","latitude":"33.835293","longitude":"-117.914505"},{"name":"Mableton, GA, USA","latitude":"33.818718","longitude":"-84.582436"},{"name":"Milford, CT, USA","latitude":"41.230698","longitude":"-73.064034"},{"name":"Logan Square, Chicago, IL, USA","latitude":"41.923122","longitude":"-87.70929"},{"name":"Haverhill, MA, USA","latitude":"42.776199","longitude":"-71.077278"},{"name":"Brockton, MA, USA","latitude":"42.083431","longitude":"-71.018379"},{"name":"Duluth, MN, USA","latitude":"46.786671","longitude":"-92.100487"},{"name":"Wylie, TX, USA","latitude":"33.015572","longitude":"-96.536346"},{"name":"Oshkosh, WI, USA","latitude":"44.034294","longitude":"-88.547745"},{"name":"Scottsdale, AZ, USA","latitude":"33.501324","longitude":"-111.925278"},{"name":"Chandler, Arizona, USA","latitude":"33.307575","longitude":"-111.84494"},{"name":"Fort Lauderdale, FL, USA","latitude":"26.139412","longitude":"-80.133591"},{"name":"Schaumburg, IL, USA","latitude":"42.03336","longitude":"-88.083405"},{"name":"Shreveport, LA, USA","latitude":"32.523659","longitude":"-93.763504"},{"name":"Ozark, Arkansas, USA","latitude":"35.489746","longitude":"-93.824272"},{"name":"Brookings, SD, USA","latitude":"44.311356","longitude":"-96.798386"},{"name":"Kingsport, TN, USA","latitude":"36.548435","longitude":"-82.561821"},{"name":"Huntsville, AL, USA","latitude":"34.738228","longitude":"-86.601791"},{"name":"Jal, NM, USA","latitude":"32.113182","longitude":"-103.193512"},{"name":"Glendale, AZ, USA","latitude":"33.548264","longitude":"-112.191696"},{"name":"Carlsbad, CA, USA","latitude":"33.158092","longitude":"-117.350594"},{"name":"Attleboro, MS, USA","latitude":"41.944546","longitude":"-71.285606"},{"name":"Santa Maria, CA, USA","latitude":"34.963623","longitude":"-120.424576"},{"name":"Columbus, IN, USA","latitude":"39.201439","longitude":"-85.921379"},{"name":"Woodbridge, VA, USA","latitude":"38.658707","longitude":"-77.257919"},{"name":"Union, NJ, USA","latitude":"40.702503","longitude":"-74.261398"},{"name":"Moore, OK, USA","latitude":"35.339508","longitude":"-97.486702"},{"name":"Bowling Green, OH, USA","latitude":"41.374775","longitude":"-83.651321"},{"name":"Watertown, NY, USA","latitude":"43.974785","longitude":"-75.910759"},{"name":"Pembroke, MA, USA","latitude":"42.071491","longitude":"-70.809196"},{"name":"Paso Robles, CA, USA","latitude":"35.640556","longitude":"-120.680008"},{"name":"El Paso, TX, USA","latitude":"31.772543","longitude":"-106.460953"},{"name":"Fresno, CA, USA","latitude":"36.746841","longitude":"-119.772591"},{"name":"Oxford, AL, USA","latitude":"33.614269","longitude":"-85.834969"},{"name":"Waikk, Honolulu, HI, USA","latitude":"21.290014","longitude":"-157.835938"},{"name":"South Gate, CA, USA","latitude":"33.956032","longitude":"-118.211349"},{"name":"Fort Worth, TX, USA","latitude":"32.768799","longitude":"-97.309341"},{"name":"Methuen, Massachusetts, USA","latitude":"42.7262","longitude":"-71.190895"},{"name":"Farmington, NM, USA","latitude":"36.733379","longitude":"-108.213272"},{"name":"Paducah, Kentucky, USA","latitude":"37.086678","longitude":"-88.60405"},{"name":"San Pedro, Los Angeles, CA, USA","latitude":"33.736061","longitude":"-118.292244"},{"name":"Albuquerque, NM, USA","latitude":"35.106766","longitude":"-106.629181"},{"name":"Laurel, MD, USA","latitude":"39.109818","longitude":"-76.840439"},{"name":"Elizabeth, NJ, USA","latitude":"40.666058","longitude":"-74.200974"},{"name":"Alexandria, VA, USA","latitude":"38.82045","longitude":"-77.050552"},{"name":"Chino Hills, California, the US","latitude":"33.989819","longitude":"-117.732582"},{"name":"Orlando, FL, USA","latitude":"28.538336","longitude":"-81.379234"},{"name":"Fredericksburg, VA, USA","latitude":"38.309875","longitude":"-77.466316"},{"name":"Fort Wayne, IN, USA","latitude":"41.093842","longitude":"-85.139236"},{"name":"Wichita, KS, USA","latitude":"37.697948","longitude":"-97.314835"},{"name":"Peoria, Il, USA","latitude":"40.703545","longitude":"-89.579086"},{"name":"Lancaster, PA, USA","latitude":"40.044437","longitude":"-76.306229"},{"name":"Chester, PA, USA","latitude":"39.853886","longitude":"-75.358658"},{"name":"Baltimore, MD, USA","latitude":"39.299236","longitude":"-76.609383"},{"name":"Manassas Park, VA, USA","latitude":"38.784225","longitude":"-77.45945"},{"name":"Chicago, IL, USA","latitude":"41.881832","longitude":"-87.623177"},{"name":"Bemidji, MN, USA","latitude":"47.481018","longitude":"-94.888229"},{"name":"New York City, NY, USA","latitude":"40.73061","longitude":"-73.935242"},{"name":"Clinton, MD, USA","latitude":"38.768005","longitude":"-76.897087"},{"name":"Jamaica, NY, USA","latitude":"40.699783","longitude":"-73.786026"},{"name":"Savannah, GA, USA","latitude":"32.076176","longitude":"-81.088371"},{"name":"La Puente, CA, USA","latitude":"34.020012","longitude":"-117.949509"},{"name":"Minnetonka, MN, USA","latitude":"44.921185","longitude":"-93.46875"},{"name":"Cedar City, UT, USA","latitude":"37.680492","longitude":"-113.061722"},{"name":"Allentown, Pennsylvania, USA","latitude":"40.610306","longitude":"-75.477104"},{"name":"Elizabeth City, NC, USA","latitude":"36.302952","longitude":"-76.245804"},{"name":"Pocahontas, Arkansas, USA","latitude":"36.264206","longitude":"-90.96199"},{"name":"Chicopee, Massachusetts, USA","latitude":"42.155258","longitude":"-72.60006"},{"name":"Broken Arrow, OK, USA","latitude":"36.056561","longitude":"-95.783516"},{"name":"Los Angeles, CA, USA","latitude":"34.052235","longitude":"-118.243683"},{"name":"Sacramento, CA, USA","latitude":"38.590576","longitude":"-121.489906"},{"name":"Bellingham, WA, USA","latitude":"48.769768","longitude":"-122.485886"},{"name":"Fullerton, CA, USA","latitude":"33.876118","longitude":"-117.92141"},{"name":"Honolulu, HI, USA","latitude":"21.315603","longitude":"-157.858093"},{"name":"Sarasota, FL, USA","latitude":"27.341274","longitude":"-82.528267"},{"name":"Downey, CA, USA","latitude":"33.945068","longitude":"-118.12809"},{"name":"Clearwater, FL, USA","latitude":"27.972572","longitude":"-82.796745"},{"name":"Bowie, MD, the US","latitude":"39.013313","longitude":"-76.776924"},{"name":"Pompano Beach, FL, USA","latitude":"26.24354","longitude":"-80.122948"},{"name":"Kalamazoo, MI, USA","latitude":"42.299152","longitude":"-85.591736"},{"name":"Federal Way, WA, USA","latitude":"47.322323","longitude":"-122.312622"},{"name":"Enid, OK, USA","latitude":"36.395588","longitude":"-97.878387"},{"name":"Palm Bay, FL, USA","latitude":"28.040169","longitude":"-80.59433"},{"name":"Las Vegas, NV, USA","latitude":"36.114647","longitude":"-115.172813"},{"name":"Saratoga, CA, USA","latitude":"37.266949","longitude":"-122.025146"},{"name":"Redlands, CA, USA","latitude":"34.055569","longitude":"-117.182541"},{"name":"Brick, NJ, USA","latitude":"40.060272","longitude":"-74.139343"},{"name":"Henderson, KY, USA","latitude":"37.840427","longitude":"-87.578888"},{"name":"Ontario, CA, USA","latitude":"34.068871","longitude":"-117.651215"},{"name":"Fresno, TX, USA","latitude":"29.540457","longitude":"-95.448189"},{"name":"Mount Juliet, TN, USA","latitude":"36.200928","longitude":"-86.519737"},{"name":"Independence, Missouri, US","latitude":"39.091118","longitude":"-94.415504"},{"name":"Lebanon, IN, USA","latitude":"40.052059","longitude":"-86.470642"},{"name":"Hyattsville, MD, USA","latitude":"38.956341","longitude":"-76.941719"},{"name":"Salem, OR, USA","latitude":"44.944099","longitude":"-123.040283"},{"name":"Rio Rancho, Albuquerque, NM, USA","latitude":"35.226997","longitude":"-106.675461"},{"name":"Calhoun, GA, USA","latitude":"34.50169","longitude":"-84.939697"},{"name":"Charlotte, NC, USA","latitude":"35.227085","longitude":"-80.843124"},{"name":"Needham, MA, USA","latitude":"42.28093","longitude":"-71.237755"},{"name":"Charleston, South Carolina, USA","latitude":"32.784618","longitude":"-79.940918"},{"name":"Stockton, CA, USA","latitude":"37.961632","longitude":"-121.275604"},{"name":"Beaumont, TX, USA","latitude":"30.081987","longitude":"-94.118637"},{"name":"Oxnard, CA, USA","latitude":"34.196411","longitude":"-119.170898"},{"name":"Leawood, KS, USA","latitude":"38.966675","longitude":"-94.616898"},{"name":"Perrysburg, OH, USA","latitude":"41.568916","longitude":"-83.640564"},{"name":"Santa Fe, NM, USA","latitude":"35.691544","longitude":"-105.944183"},{"name":"Post Falls, ID, USA","latitude":"47.712257","longitude":"-116.948364"},{"name":"Lubbock, TX, USA","latitude":"33.576698","longitude":"-101.855072"},{"name":"Topeka, KS, USA","latitude":"39.056198","longitude":"-95.695312"},{"name":"Santa Rosa, CA, USA","latitude":"38.44466","longitude":"-122.720306"},{"name":"St. Cloud, FL, USA","latitude":"28.248901","longitude":"-81.281181"},{"name":"Menifee, CA, USA","latitude":"33.680984","longitude":"-117.1707"},{"name":"Longview, TX, USA","latitude":"32.514885","longitude":"-94.737236"},{"name":"Sacramento, CA, USA","latitude":"38.575764","longitude":"-121.478851"},{"name":"Reno, NV, USA","latitude":"39.530895","longitude":"-119.814972"},{"name":"Simi Valley, CA, USA","latitude":"34.269447","longitude":"-118.781479"},{"name":"Colorado Springs, CO, USA","latitude":"38.846127","longitude":"-104.800644"},{"name":"Hermiston, OR, USA","latitude":"45.845543","longitude":"-119.292641"},{"name":"Scranton, PA, USA","latitude":"41.411835","longitude":"-75.665245"},{"name":"Brainerd, MN, USA","latitude":"46.355934","longitude":"-94.201408"},{"name":"Colton, CA, USA","latitude":"34.075127","longitude":"-117.30909"},{"name":"Bayonne, NJ, USA","latitude":"40.668713","longitude":"-74.114311"},{"name":"New City, NY, USA","latitude":"41.147594","longitude":"-73.989304"},{"name":"Fort Myers, Florida, USA","latitude":"26.640629","longitude":"-81.872307"},{"name":"Richfield, MN, USA","latitude":"44.883244","longitude":"-93.28624"},{"name":"Allentown, PA, USA","latitude":"40.613953","longitude":"-75.477791"},{"name":"Seminole, TX, USA","latitude":"32.719276","longitude":"-102.644661"},{"name":"Georgetown, SC, USA","latitude":"33.373474","longitude":"-79.288521"},{"name":"Greenwood, Indiana, USA","latitude":"39.614944","longitude":"-86.105606"},{"name":"Chesapeake, VA, USA","latitude":"36.779591","longitude":"-76.288376"},{"name":"Marco Island, Florida, USA","latitude":"25.940556","longitude":"-81.714722"},{"name":"Spanish Fork, Utah, USA","latitude":"40.114956","longitude":"-111.654922"},{"name":"Corpus Christi, TX, USA","latitude":"27.800583","longitude":"-97.396378"},{"name":"Wooster, Ohio, USA","latitude":"40.7202","longitude":"-81.874237"},{"name":"Pittsburgh, Pennsylvania, USA","latitude":"40.440624","longitude":"-79.995888"},{"name":"Newport, TN, USA","latitude":"35.964279","longitude":"-83.182152"},{"name":"Baytown, TX, USA","latitude":"29.733303","longitude":"-94.978134"},{"name":"Lambertville, NJ, USA","latitude":"40.36594","longitude":"-74.942947"},{"name":"Vallejo, CA, USA","latitude":"38.104088","longitude":"-122.256638"},{"name":"Oklahoma City, Oklahoma, USA","latitude":"35.481918","longitude":"-97.508469"},{"name":"Highland Park, IL, USA","latitude":"42.190166","longitude":"-87.786697"},{"name":"Mentor, OH, USA","latitude":"41.659576","longitude":"-81.372299"},{"name":"St. Joseph, MO, USA","latitude":"39.766853","longitude":"-94.834152"},{"name":"Rolla, MO, USA","latitude":"37.951424","longitude":"-91.768959"},{"name":"Mill Valley, CA, USA","latitude":"37.905182","longitude":"-122.544006"},{"name":"Elizabethton, TN, USA","latitude":"36.352879","longitude":"-82.207649"},{"name":"Naperville, IL, USA","latitude":"41.789234","longitude":"-88.151894"},{"name":"Cartersville, GA, USA","latitude":"34.16608","longitude":"-84.800613"},{"name":"Denton, TX, USA","latitude":"33.21484","longitude":"-97.133064"},{"name":"Salt Lake City, UH, USA","latitude":"40.758701","longitude":"-111.876183"},{"name":"Suffolk, VA, USA","latitude":"36.73283","longitude":"-76.579002"},{"name":"Garden City Park, NY, USA","latitude":"40.740364","longitude":"-73.662727"},{"name":"Gloster, LA, USA","latitude":"32.190994","longitude":"-93.814903"},{"name":"Knoxville, TN, USA","latitude":"35.964668","longitude":"-83.926453"},{"name":"York, PN, USA","latitude":"39.962303","longitude":"-76.727692"},{"name":"Bloomington, CA, USA","latitude":"34.069725","longitude":"-117.39621"},{"name":"Saint Paul, MN, USA","latitude":"44.954445","longitude":"-93.091301"},{"name":"Toledo, OH, USA","latitude":"41.651031","longitude":"-83.541939"},{"name":"Hobart, IN, USA","latitude":"41.52914","longitude":"-87.250328"},{"name":"Lawrenceville, GA, USA","latitude":"33.957245","longitude":"-83.988441"},{"name":"Mukilteo, WA, USA","latitude":"47.947079","longitude":"-122.303864"},{"name":"Gatlinburg, TN, USA","latitude":"35.714321","longitude":"-83.510391"},{"name":"Maysville, KY, USA","latitude":"38.641186","longitude":"-83.744362"},{"name":"Ann Arbor, Michigan, the US","latitude":"42.279594","longitude":"-83.732124"},{"name":"Cranberry Township, PA, USA","latitude":"40.682201","longitude":"-80.104919"},{"name":"Anderson, IN, USA","latitude":"40.109589","longitude":"-85.676964"},{"name":"San Francisco, CA, USA","latitude":"37.773972","longitude":"-122.431297"},{"name":"New Lenox, IL, USA","latitude":"41.511921","longitude":"-87.963577"},{"name":"Fort Mitchell, AL, USA","latitude":"32.341537","longitude":"-85.021599"},{"name":"Oakdale, MN, USA","latitude":"44.963219","longitude":"-92.964417"},{"name":"Springfield, VA, USA","latitude":"38.788612","longitude":"-77.174316"},{"name":"Boise, ID, USA","latitude":"43.618881","longitude":"-116.215019"},{"name":"Oyster Bay, NY, USA","latitude":"40.865635","longitude":"-73.532326"},{"name":"Franklinton, LA, USA","latitude":"30.847425","longitude":"-90.154503"},{"name":"Hollywood, FL, USA","latitude":"26.01128","longitude":"-80.142967"},{"name":"Stafford, VA, USA","latitude":"38.422932","longitude":"-77.407997"},{"name":"Chelmsford, MA, USA","latitude":"42.598713","longitude":"-71.363625"},{"name":"Pekin, IL, USA","latitude":"40.568459","longitude":"-89.643028"},{"name":"Albany, NY, USA","latitude":"42.65258","longitude":"-73.756233"},{"name":"San Antonio, TX, USA","latitude":"29.424349","longitude":"-98.491142"},{"name":"Uvalde, Texas, USA","latitude":"29.209684","longitude":"-99.786171"},{"name":"Detroit, Michigan, the US","latitude":"42.331429","longitude":"-83.045753"},{"name":"Carthage, Mississippi, USA","latitude":"32.732635","longitude":"-89.536179"},{"name":"Plankinton, SD, the US","latitude":"43.71479","longitude":"-98.484451"},{"name":"Alliance, OH, the US","latitude":"40.915337","longitude":"-81.105934"},{"name":"Concord, North Carolina, USA","latitude":"35.408752","longitude":"-80.579514"},{"name":"Trenton, NJ, USA","latitude":"40.217052","longitude":"-74.742935"},{"name":"Columbus, MS, USA","latitude":"33.495674","longitude":"-88.427261"},{"name":"Lakewood, WA, USA","latitude":"47.171764","longitude":"-122.518456"},{"name":"Yuba City, California, the US","latitude":"39.136986","longitude":"-121.607841"},{"name":"Brighton, IL, USA","latitude":"39.039055","longitude":"-90.140678"},{"name":"Massillon, Ohio, the US","latitude":"40.787819","longitude":"-81.519585"},{"name":"Atlantic Highlands, NJ, USA","latitude":"40.413757","longitude":"-74.041245"},{"name":"Decorah, Iowa, the US","latitude":"43.303307","longitude":"-91.785706"},{"name":"Southfield, MI, USA","latitude":"42.475136","longitude":"-83.221275"},{"name":"San Francisco, CA, USA","latitude":"37.733795","longitude":"-122.446747"},{"name":"Richfield, Utah, USA","latitude":"38.769287","longitude":"-112.088409"},{"name":"Anderson, Texas, the US","latitude":"30.4874","longitude":"-95.987228"}]
